{
  "stores": [
    {
      "storeNumber": 1103,
      "storeName": 1103,
      "latitude": 43.6583581793255,
      "longitude": -79.3818422751764,
      "eCommOnly": "Y",
      "streetNumber": 362,
      "street": "Yonge Street",
      "city": "Toronto",
      "province": "ON",
      "postalCode": "M5B 1S5",
      "phoneNumber": "(416) 416-4164",
      "pickUpEnabled": "true"
    },
    {
      "storeNumber": 1119,
      "storeName": "1119 - Weber St",
      "latitude": 43.4793363357318,
      "longitude": -80.5210848050225,
      "eCommOnly": "Y",
      "streetNumber": 267,
      "street": "Weber St N",
      "city": "Waterloo",
      "province": "ON",
      "postalCode": "N2J 3H8",
      "phoneNumber": "(519) 884-9410 X0",
      "pickUpEnabled": "true"
    },
    {
      "storeNumber": 1109,
      "storeName": "1109 - Erin Mills",
      "latitude": 43.5900414562075,
      "longitude": -79.74131591,
      "eCommOnly": "Y",
      "streetNumber": 6430,
      "street": "Erin Mills Pkwy",
      "city": "Erin Mills",
      "province": "ON",
      "postalCode": "L5N 3P3",
      "phoneNumber": "(905) 858-5849 X0",
      "pickUpEnabled": "true"
    },
    {
      "storeNumber": 1110,
      "storeName": "1110 - Dalton Ave",
      "latitude": 44.2658334059861,
      "longitude": -76.5026095615213,
      "eCommOnly": "Y",
      "streetNumber": 85,
      "street": "Dalton Ave",
      "city": "Kingston",
      "province": "ON",
      "postalCode": "K7K 6C2",
      "phoneNumber": "",
      "pickUpEnabled": "true"
    },
    {
      "storeNumber": 1105,
      "storeName": "1105 - Queenston Rd",
      "latitude": 43.2292288230993,
      "longitude": -79.7697095093026,
      "eCommOnly": "Y",
      "streetNumber": 735,
      "street": "Queenston Rd",
      "city": "Hamilton",
      "province": "ON",
      "postalCode": "L8G 1A1",
      "phoneNumber": "(905) 561-1414",
      "pickUpEnabled": "true"
    },
    {
      "storeNumber": 1104,
      "storeName": "1104 - Eglinton Ave",
      "latitude": 43.7403465939942,
      "longitude": -79.2321508317841,
      "eCommOnly": "Y",
      "streetNumber": 2990,
      "street": "Eglinton Ave E",
      "city": "Scarborough",
      "province": "ON",
      "postalCode": "M1J 2E4",
      "phoneNumber": "(416) 438-3223",
      "pickUpEnabled": "true"
    },
    {
      "storeNumber": 1134,
      "storeName": "1134 - Highbury Ave",
      "latitude": 43.0127332792441,
      "longitude": -81.211738599799,
      "eCommOnly": "Y",
      "streetNumber": 1141,
      "street": "Highbury Ave N",
      "city": "London",
      "province": "ON",
      "postalCode": "N5Y 1A5",
      "phoneNumber": "(519) 452-1280",
      "pickUpEnabled": "false"
    },
    {
      "storeNumber": 1135,
      "storeName": "1135 - Wellington Rd",
      "latitude": 42.934903603094,
      "longitude": -81.2238565831231,
      "eCommOnly": "Y",
      "streetNumber": 1067,
      "street": "Wellington Rd",
      "city": "London",
      "province": "ON",
      "postalCode": "N6E 2H5",
      "phoneNumber": "(519) 681-1600 X0",
      "pickUpEnabled": "true"
    },
    {
      "storeNumber": 1132,
      "storeName": "1132 - Memorial Dr",
      "latitude": 51.0489214622257,
      "longitude": -113.991990617519,
      "eCommOnly": "Y",
      "streetNumber": 2840,
      "street": "Memorial Dr SE",
      "city": "Calgary",
      "province": "AB",
      "postalCode": "T2A 6L6",
      "phoneNumber": "(403) 273-7070",
      "pickUpEnabled": "true"
    },
    {
      "storeNumber": 1133,
      "storeName": "1133 - Geneva",
      "latitude": 43.1782016917709,
      "longitude": -79.2409192115162,
      "eCommOnly": "Y",
      "streetNumber": 285,
      "street": "Geneva St",
      "city": "St.Catharines",
      "province": "ON",
      "postalCode": "L2N 2E9",
      "phoneNumber": "(905) 934-5536",
      "pickUpEnabled": "true"
    },
    {
      "storeNumber": 1130,
      "storeName": "1130 - Marycroft Ave",
      "latitude": 43.784789988579,
      "longitude": -79.5663878048829,
      "eCommOnly": "Y",
      "streetNumber": 205,
      "street": "Marycroft Ave",
      "city": "Woodbridge",
      "province": "ON",
      "postalCode": "L4L 5X8",
      "phoneNumber": "(905) 856-2948 X0",
      "pickUpEnabled": "true"
    },
    {
      "storeNumber": 1126,
      "storeName": "1126 - Fairview St",
      "latitude": 43.3463684412104,
      "longitude": -79.798398478493,
      "eCommOnly": "Y",
      "streetNumber": 2422,
      "street": "Fairview St",
      "city": "Burlington",
      "province": "ON",
      "postalCode": "L7R 2E4",
      "phoneNumber": "(905) 681-3336",
      "pickUpEnabled": "true"
    },
    {
      "storeNumber": 1123,
      "storeName": "1123 - Montreal Rd",
      "latitude": 45.441726216989,
      "longitude": -75.6447818902691,
      "eCommOnly": "Y",
      "streetNumber": 540,
      "street": "Montreal Rd",
      "city": "Ottawa",
      "province": "ON",
      "postalCode": "K1K 0T9",
      "phoneNumber": "(613) 746-1777 X0",
      "pickUpEnabled": "true"
    },
    {
      "storeNumber": 1146,
      "storeName": "1146 - Bank St",
      "latitude": 45.3682134186563,
      "longitude": -75.662226749646,
      "eCommOnly": "Y",
      "streetNumber": 1910,
      "street": "Bank St",
      "city": "Ottawa",
      "province": "ON",
      "postalCode": "K1V 7Z8",
      "phoneNumber": "(613) 733-7231 X0",
      "pickUpEnabled": "true"
    },
    {
      "storeNumber": 1139,
      "storeName": "1139 - Niagara Falls",
      "latitude": 43.0892871567476,
      "longitude": -79.1060929095221,
      "eCommOnly": "Y",
      "streetNumber": 6666,
      "street": "Lundy\u0027s Lane",
      "city": "Niagara Falls",
      "province": "ON",
      "postalCode": "L2G 1V5",
      "phoneNumber": "(905) 356-1028",
      "pickUpEnabled": "true"
    },
    {
      "storeNumber": 2299,
      "storeName": "2299 - Brookdale Ave",
      "latitude": 45.0225298737806,
      "longitude": -74.7470413154784,
      "eCommOnly": "Y",
      "streetNumber": 700,
      "street": "Brookdale Ave",
      "city": "Cornwall",
      "province": "ON",
      "postalCode": "K6J 5M2",
      "phoneNumber": "(613) 938-2555",
      "pickUpEnabled": "true"
    },
    {
      "storeNumber": 2291,
      "storeName": 2291,
      "latitude": 45.8316035,
      "longitude": -77.1508606,
      "eCommOnly": "Y",
      "streetNumber": 1290,
      "street": "Pembroke St W",
      "city": "Pembroke",
      "province": "ON",
      "postalCode": "K8A 7A2",
      "phoneNumber": "(613) 735-3279",
      "pickUpEnabled": "true"
    },
    {
      "storeNumber": 1221,
      "storeName": "1221 - OConnor Dr",
      "latitude": 43.7125624339391,
      "longitude": -79.3073950317942,
      "eCommOnly": "Y",
      "streetNumber": 1400,
      "street": "O\u0027Connor Dr",
      "city": "East York",
      "province": "ON",
      "postalCode": "M4B 2T8",
      "phoneNumber": "(416) 701-9869 X0",
      "pickUpEnabled": "true"
    },
    {
      "storeNumber": 1763,
      "storeName": "1763 - Barrie View Dr",
      "latitude": 44.3348682317496,
      "longitude": -79.687775097314,
      "eCommOnly": "Y",
      "streetNumber": 85,
      "street": "Barrie View Dr",
      "city": "Barrie",
      "province": "ON",
      "postalCode": "L4N 8V4",
      "phoneNumber": "",
      "pickUpEnabled": "true"
    },
    {
      "storeNumber": 1220,
      "storeName": "1220 - Queens Quay",
      "latitude": 43.6388980561867,
      "longitude": -79.3861094242361,
      "eCommOnly": "Y",
      "streetNumber": 266,
      "street": "Queens Quay W",
      "city": "Toronto",
      "province": "ON",
      "postalCode": "M5J 1B5",
      "phoneNumber": "(416) 596-7292",
      "pickUpEnabled": "true"
    },
    {
      "storeNumber": 1223,
      "storeName": "1223 - Wyecroft Rd",
      "latitude": 43.3930691436481,
      "longitude": -79.7512271557793,
      "eCommOnly": "Y",
      "streetNumber": 3543,
      "street": "Wyecroft Rd",
      "city": "Oakville",
      "province": "ON",
      "postalCode": "L6L 0B7",
      "phoneNumber": "(905) 469-8764",
      "pickUpEnabled": "true"
    },
    {
      "storeNumber": 1761,
      "storeName": "1761 - Lougheed Hwy",
      "latitude": 49.2660523969072,
      "longitude": -123.018746474015,
      "eCommOnly": "Y",
      "streetNumber": 3860,
      "street": "Lougheed Hwy",
      "city": "Burnaby",
      "province": "BC",
      "postalCode": "V5C 6N4",
      "phoneNumber": "(604) 299-1761 X0",
      "pickUpEnabled": "true"
    },
    {
      "storeNumber": 1222,
      "storeName": "1222 - Foulis Row",
      "latitude": 44.7068699262132,
      "longitude": -63.5614356638428,
      "eCommOnly": "Y",
      "streetNumber": 16,
      "street": "Foulis Row",
      "city": "Dartmouth",
      "province": "NS",
      "postalCode": "B3B 0E1",
      "phoneNumber": "(905) 905-9051",
      "pickUpEnabled": "true"
    },
    {
      "storeNumber": 1217,
      "storeName": "1217 - York Mills",
      "latitude": 43.7534175436399,
      "longitude": -79.3575886049282,
      "eCommOnly": "Y",
      "streetNumber": 801,
      "street": "York Mills Rd",
      "city": "North York",
      "province": "ON",
      "postalCode": "M3B 1X7",
      "phoneNumber": "(416) 449-9194",
      "pickUpEnabled": "true"
    },
    {
      "storeNumber": 1767,
      "storeName": "1767 - Regent St",
      "latitude": 46.4475989766584,
      "longitude": -80.9911194294718,
      "eCommOnly": "Y",
      "streetNumber": 2309,
      "street": "Regent St",
      "city": "Sudbury",
      "province": "ON",
      "postalCode": "P3E 6K7",
      "phoneNumber": "(705) 522-9100 X0",
      "pickUpEnabled": "true"
    },
    {
      "storeNumber": 1216,
      "storeName": "1216 - West Dr",
      "latitude": 43.7090183421101,
      "longitude": -79.7344893690889,
      "eCommOnly": "Y",
      "streetNumber": 150,
      "street": "West Dr",
      "city": "Brampton",
      "province": "ON",
      "postalCode": "L6T 5P1",
      "phoneNumber": "(905) 760-2222",
      "pickUpEnabled": "true"
    },
    {
      "storeNumber": 1766,
      "storeName": "1766 - Prospect St",
      "latitude": 45.9433242989295,
      "longitude": -66.6715787425999,
      "eCommOnly": "Y",
      "streetNumber": 961,
      "street": "Prospect St",
      "city": "Fredericton",
      "province": "NB",
      "postalCode": "E3B 2T7",
      "phoneNumber": "(506) 458-8278 X0",
      "pickUpEnabled": "true"
    },
    {
      "storeNumber": 1219,
      "storeName": "1219 - 130 Ave",
      "latitude": 50.9321233265291,
      "longitude": -113.963843914301,
      "eCommOnly": "Y",
      "streetNumber": 4916,
      "street": "130 Ave SE",
      "city": "Calgary",
      "province": "AB",
      "postalCode": "T2Z 0G4",
      "phoneNumber": "(403) 216-2557 X0",
      "pickUpEnabled": "true"
    },
    {
      "storeNumber": 1218,
      "storeName": "1218 - Boroough Dr",
      "latitude": 43.7747651663292,
      "longitude": -79.2609694428098,
      "eCommOnly": "Y",
      "streetNumber": 300,
      "street": "Borough Dr",
      "city": "Scarborough",
      "province": "ON",
      "postalCode": "M1P 4P5",
      "phoneNumber": "(416) 296-9923 X0",
      "pickUpEnabled": "true"
    },
    {
      "storeNumber": 1764,
      "storeName": "1764 - Terry Fox Dr",
      "latitude": 45.2936891971019,
      "longitude": -75.8956685602779,
      "eCommOnly": "Y",
      "streetNumber": 653,
      "street": "Terry Fox Dr",
      "city": "Kanata",
      "province": "ON",
      "postalCode": "K2L 4E7",
      "phoneNumber": "(613) 831-8400 X0",
      "pickUpEnabled": "true"
    },
    {
      "storeNumber": 1771,
      "storeName": "1771 - Lynden Rd",
      "latitude": 43.1737554801352,
      "longitude": -80.2396952210296,
      "eCommOnly": "Y",
      "streetNumber": 84,
      "street": "Lynden Rd",
      "city": "Brantford",
      "province": "ON",
      "postalCode": "N3R 6B4",
      "phoneNumber": "(519) 759-6990 X0",
      "pickUpEnabled": "true"
    },
    {
      "storeNumber": 2622,
      "storeName": "2622 - Corydon Ave",
      "latitude": 49.8681153182918,
      "longitude": -97.1612691250401,
      "eCommOnly": "Y",
      "streetNumber": 946,
      "street": "Corydon Avenue",
      "city": "Winnipeg",
      "province": "MB",
      "postalCode": "R3M 0Y5",
      "phoneNumber": "(204) 475-1309 X0",
      "pickUpEnabled": "true"
    },
    {
      "storeNumber": 1231,
      "storeName": "1231 - Sarcee Trail",
      "latitude": 51.15789441475,
      "longitude": -114.161487215999,
      "eCommOnly": "Y",
      "streetNumber": 11660,
      "street": "Sarcee Trail N.W",
      "city": "Calgary",
      "province": "AB",
      "postalCode": "T3R 0A1",
      "phoneNumber": "",
      "pickUpEnabled": "true"
    },
    {
      "storeNumber": 1769,
      "storeName": "1769 - Edinburgh Rd",
      "latitude": 43.5200458622934,
      "longitude": -80.233826494634,
      "eCommOnly": "Y",
      "streetNumber": 502,
      "street": "Edinburgh Rd S",
      "city": "Guelph",
      "province": "ON",
      "postalCode": "N1G 4Z1",
      "phoneNumber": "(519) 823-5787 X0",
      "pickUpEnabled": "true"
    },
    {
      "storeNumber": 1230,
      "storeName": "1230 - Mayor Magrath",
      "latitude": 49.6574186921667,
      "longitude": -112.792645086613,
      "eCommOnly": "Y",
      "streetNumber": 3849,
      "street": "Mayor Magrath Drive South",
      "city": "Lethbridge",
      "province": "AB",
      "postalCode": "T1K 8A8",
      "phoneNumber": "(403) 394-7861 X0",
      "pickUpEnabled": "true"
    },
    {
      "storeNumber": 1768,
      "storeName": "1768 - Victoria St",
      "latitude": 43.4661749252679,
      "longitude": -80.4578371591246,
      "eCommOnly": "Y",
      "streetNumber": 1151,
      "street": "Victoria St N",
      "city": "Kitchener",
      "province": "ON",
      "postalCode": "N2B 3C8",
      "phoneNumber": "(519) 741-7168 X0",
      "pickUpEnabled": "true"
    },
    {
      "storeNumber": 1225,
      "storeName": "1225 - Yonge St",
      "latitude": 43.6892381616847,
      "longitude": -79.3946670702023,
      "eCommOnly": "Y",
      "streetNumber": 1560,
      "street": "Yonge St",
      "city": "Toronto",
      "province": "ON",
      "postalCode": "M4T 2S9",
      "phoneNumber": "(416) 964-6501",
      "pickUpEnabled": "true"
    },
    {
      "storeNumber": 1775,
      "storeName": "1775 - Woodbine Ave",
      "latitude": 43.8228071074344,
      "longitude": -79.3508859030183,
      "eCommOnly": "Y",
      "streetNumber": 7359,
      "street": "Woodbine Ave",
      "city": "Markham",
      "province": "ON",
      "postalCode": "L3R 1A7",
      "phoneNumber": "(905) 305-9948 X0",
      "pickUpEnabled": "true"
    },
    {
      "storeNumber": 1224,
      "storeName": "1224 - University Ave",
      "latitude": 43.6592246979039,
      "longitude": -79.3904378736132,
      "eCommOnly": "Y",
      "streetNumber": 700,
      "street": "University Avenue",
      "city": "Toronto",
      "province": "ON",
      "postalCode": "M5G 1Z5",
      "phoneNumber": "(416) 260-8574 X0",
      "pickUpEnabled": "true"
    },
    {
      "storeNumber": 1774,
      "storeName": "1774 - Montrose Rd",
      "latitude": 43.1185968453036,
      "longitude": -79.124898307277,
      "eCommOnly": "Y",
      "streetNumber": 3770,
      "street": "Montrose Rd",
      "city": "Niagara Falls",
      "province": "ON",
      "postalCode": "L2H 3K3",
      "phoneNumber": "(905) 354-9660",
      "pickUpEnabled": "true"
    },
    {
      "storeNumber": 1227,
      "storeName": "1227 - Highway 7",
      "latitude": 43.7723568037472,
      "longitude": -79.6249274449189,
      "eCommOnly": "Y",
      "streetNumber": 6120,
      "street": "Highway 7",
      "city": "Vaughan",
      "province": "ON",
      "postalCode": "L4H 0R2",
      "phoneNumber": "(905) 264-5438",
      "pickUpEnabled": "true"
    },
    {
      "storeNumber": 1773,
      "storeName": "1773 - Upper James St",
      "latitude": 43.2120692302413,
      "longitude": -79.8887339691936,
      "eCommOnly": "Y",
      "streetNumber": 1317,
      "street": "Upper James St",
      "city": "Hamilton",
      "province": "ON",
      "postalCode": "L9C 3B3",
      "phoneNumber": "(905) 388-7488",
      "pickUpEnabled": "true"
    },
    {
      "storeNumber": 1226,
      "storeName": "1226 - 17th Street",
      "latitude": 53.4792954217892,
      "longitude": -113.368904400993,
      "eCommOnly": "Y",
      "streetNumber": 4004,
      "street": "17th Street, NW",
      "city": "Edmonton",
      "province": "AB",
      "postalCode": "T6T 0C1",
      "phoneNumber": "(780) 485-6531",
      "pickUpEnabled": "true"
    },
    {
      "storeNumber": 1772,
      "storeName": "1772 - Lacewood Dr",
      "latitude": 44.6584858848852,
      "longitude": -63.6718318824331,
      "eCommOnly": "Y",
      "streetNumber": 358,
      "street": "Lacewood Dr",
      "city": "Halifax",
      "province": "NS",
      "postalCode": "B3S 1M7",
      "phoneNumber": "(902) 443-5198 X0",
      "pickUpEnabled": "true"
    },
    {
      "storeNumber": 1236,
      "storeName": "1236 - Markland St",
      "latitude": 43.8870384934761,
      "longitude": -79.3782179961074,
      "eCommOnly": "Y",
      "streetNumber": 725,
      "street": "Markland St",
      "city": "Markham",
      "province": "ON",
      "postalCode": "L6C 0G6",
      "phoneNumber": "(905) 887-9650 X0",
      "pickUpEnabled": "true"
    },
    {
      "storeNumber": 1778,
      "storeName": "1778 - Strathy Rd",
      "latitude": 43.9760407982001,
      "longitude": -78.1993376433768,
      "eCommOnly": "Y",
      "streetNumber": 70,
      "street": "Strathy Rd",
      "city": "Cobourg",
      "province": "ON",
      "postalCode": "K9A 5X4",
      "phoneNumber": "",
      "pickUpEnabled": "true"
    },
    {
      "storeNumber": 1237,
      "storeName": "1237 - Laval Dr",
      "latitude": 43.8817958251648,
      "longitude": -78.8756525651301,
      "eCommOnly": "Y",
      "streetNumber": 555,
      "street": "Laval Drive",
      "city": "Oshawa",
      "province": "ON",
      "postalCode": "L1J 0B6",
      "phoneNumber": "(905) 728-8621",
      "pickUpEnabled": "true"
    },
    {
      "storeNumber": 2596,
      "storeName": "2596 - Tower St",
      "latitude": 43.6970899860733,
      "longitude": -80.3691090927002,
      "eCommOnly": "Y",
      "streetNumber": 793,
      "street": "Tower St S",
      "city": "Fergus",
      "province": "ON",
      "postalCode": "N1M 2R2",
      "phoneNumber": "(519) 843-3527 X0",
      "pickUpEnabled": "true"
    },
    {
      "storeNumber": 1238,
      "storeName": "1238 - London Rd",
      "latitude": 42.9798009670574,
      "longitude": -82.358314920594,
      "eCommOnly": "Y",
      "streetNumber": 1283,
      "street": "London Road",
      "city": "Sarnia",
      "province": "ON",
      "postalCode": "N7S 1P3",
      "phoneNumber": "(519) 336-4788 X0",
      "pickUpEnabled": "true"
    },
    {
      "storeNumber": 1776,
      "storeName": "1776 - Rutherford Rd",
      "latitude": 43.8265084444573,
      "longitude": -79.5531146202685,
      "eCommOnly": "Y",
      "streetNumber": 3737,
      "street": "Rutherford Rd",
      "city": "Woodbridge",
      "province": "ON",
      "postalCode": "L4L 1A6",
      "phoneNumber": "(905) 264-4017",
      "pickUpEnabled": "true"
    },
    {
      "storeNumber": 1777,
      "storeName": "1777 - Aberdeen Ave",
      "latitude": 47.6176495230165,
      "longitude": -52.7146072955382,
      "eCommOnly": "Y",
      "streetNumber": 70,
      "street": "Aberdeen Ave",
      "city": "St. John\u0027s",
      "province": "NL",
      "postalCode": "A1A 5N6",
      "phoneNumber": "(709) 753-6030 X0",
      "pickUpEnabled": "true"
    },
    {
      "storeNumber": 1232,
      "storeName": "1232 - Summerside Centre",
      "latitude": 42.9633337197177,
      "longitude": -81.1873117191505,
      "eCommOnly": "Y",
      "streetNumber": 1309,
      "street": "Commissioners Rd E",
      "city": "London",
      "province": "ON",
      "postalCode": "N6M 0B8",
      "phoneNumber": "(519) 668-6051 X0",
      "pickUpEnabled": "true"
    },
    {
      "storeNumber": 1782,
      "storeName": "1782 - Salem Rd",
      "latitude": 43.8977238939608,
      "longitude": -79.0306718693132,
      "eCommOnly": "Y",
      "streetNumber": 1993,
      "street": "Salem Rd N",
      "city": "Ajax",
      "province": "ON",
      "postalCode": "L1T 0J9",
      "phoneNumber": "(905) 426-8778 X0",
      "pickUpEnabled": "true"
    },
    {
      "storeNumber": 1783,
      "storeName": "1783 -Falsbridge Dr",
      "latitude": 51.0975767023701,
      "longitude": -113.956964662973,
      "eCommOnly": "Y",
      "streetNumber": 5455,
      "street": "Falsbridge Dr. NE",
      "city": "Calgary",
      "province": "AB",
      "postalCode": "T3J 3E8",
      "phoneNumber": "(403) 221-2536 X0",
      "pickUpEnabled": "true"
    },
    {
      "storeNumber": 1234,
      "storeName": "1234 - Country Village",
      "latitude": 51.1570387461472,
      "longitude": -114.062200766867,
      "eCommOnly": "Y",
      "streetNumber": 508,
      "street": "Country Village Way",
      "city": "Calgary",
      "province": "AB",
      "postalCode": "T3K 0R2",
      "phoneNumber": "(403) 216-7609",
      "pickUpEnabled": "true"
    },
    {
      "storeNumber": 1780,
      "storeName": "1780 - Hespeler Rd",
      "latitude": 43.3993282308651,
      "longitude": -80.3254296503587,
      "eCommOnly": "Y",
      "streetNumber": 506,
      "street": "Hespeler Rd",
      "city": "Cambridge",
      "province": "ON",
      "postalCode": "N1R 6J7",
      "phoneNumber": "(519) 740-7888 X0",
      "pickUpEnabled": "true"
    },
    {
      "storeNumber": 1235,
      "storeName": "1235 - Bay Street",
      "latitude": 43.6466393713089,
      "longitude": -79.3794718785498,
      "eCommOnly": "Y",
      "streetNumber": 200,
      "street": "Bay Street",
      "city": "Toronto",
      "province": "ON",
      "postalCode": "M5J 2J1",
      "phoneNumber": "",
      "pickUpEnabled": "true"
    },
    {
      "storeNumber": 1781,
      "storeName": "1781 - Kenaston Blvd",
      "latitude": 49.8228021493744,
      "longitude": -97.2023211556003,
      "eCommOnly": "Y",
      "streetNumber": 1663,
      "street": "Kenaston Blvd",
      "city": "Winnipeg",
      "province": "MB",
      "postalCode": "R3P 2M4",
      "phoneNumber": "",
      "pickUpEnabled": "true"
    },
    {
      "storeNumber": 1244,
      "storeName": "1244 - Bath Road",
      "latitude": 44.2378656388077,
      "longitude": -76.5465968811559,
      "eCommOnly": "Y",
      "streetNumber": 1330,
      "street": "Bath Road",
      "city": "Kingston",
      "province": "ON",
      "postalCode": "K7M 4X4",
      "phoneNumber": "(613) 542-4432 X0",
      "pickUpEnabled": "true"
    },
    {
      "storeNumber": 1786,
      "storeName": "1786 - Carling Ave",
      "latitude": 45.37099629348,
      "longitude": -75.7684155344683,
      "eCommOnly": "Y",
      "streetNumber": 2150,
      "street": "Carling Avenue",
      "city": "Ottawa",
      "province": "ON",
      "postalCode": "K2A 1H1",
      "phoneNumber": "(613) 722-1441 X0",
      "pickUpEnabled": "true"
    },
    {
      "storeNumber": 1787,
      "storeName": "1787 - Dufferin St",
      "latitude": 43.716599247045,
      "longitude": -79.4553553340979,
      "eCommOnly": "Y",
      "streetNumber": 3140,
      "street": "Dufferin Street",
      "city": "Toronto",
      "province": "ON",
      "postalCode": "M6A 2T1",
      "phoneNumber": "(416) 789-5445 X0",
      "pickUpEnabled": "true"
    },
    {
      "storeNumber": 1246,
      "storeName": "1246 - Fort William Rd",
      "latitude": 48.4147800345296,
      "longitude": -89.2375438071947,
      "eCommOnly": "Y",
      "streetNumber": 879,
      "street": "Fort William Rd",
      "city": "Thunder Bay",
      "province": "ON",
      "postalCode": "P7B 0A9",
      "phoneNumber": "(807) 683-2625 X0",
      "pickUpEnabled": "true"
    },
    {
      "storeNumber": 1784,
      "storeName": "1784 - Norwich Ave",
      "latitude": 43.1177407335338,
      "longitude": -80.7384532163437,
      "eCommOnly": "Y",
      "streetNumber": 427,
      "street": "Norwich Avenue",
      "city": "Woodstock",
      "province": "ON",
      "postalCode": "N4S 3W4",
      "phoneNumber": "(519) 539-9881 X0",
      "pickUpEnabled": "true"
    },
    {
      "storeNumber": 1247,
      "storeName": "1247 - Main Street",
      "latitude": 44.5224604594184,
      "longitude": -80.0156828848284,
      "eCommOnly": "Y",
      "streetNumber": "333 ",
      "street": "Main Street",
      "city": "Wasaga Beach",
      "province": "ON",
      "postalCode": "L9Z 0B6",
      "phoneNumber": "(705) 429-9950 X0",
      "pickUpEnabled": "true"
    },
    {
      "storeNumber": 1785,
      "storeName": "1785 - Glendale Ave",
      "latitude": 43.1359161387788,
      "longitude": -79.2142767268184,
      "eCommOnly": "Y",
      "streetNumber": 344,
      "street": "Glendale Avenue",
      "city": "St.Catharines",
      "province": "ON",
      "postalCode": "L2T 4E3",
      "phoneNumber": "(905) 680-8338 X0",
      "pickUpEnabled": "true"
    },
    {
      "storeNumber": 1790,
      "storeName": "New Store",
      "latitude": 45.3849466403642,
      "longitude": -75.7403854831385,
      "eCommOnly": "Y",
      "streetNumber": 675,
      "street": "Kirkwood Ave",
      "city": "Ottawa",
      "province": "ON",
      "postalCode": "K1Z 8N7",
      "phoneNumber": "(613) 729-1789 X0",
      "pickUpEnabled": "true"
    },
    {
      "storeNumber": 1243,
      "storeName": "1243 - 50th Street",
      "latitude": 53.5974230785901,
      "longitude": -113.413074079421,
      "eCommOnly": "Y",
      "streetNumber": 13720,
      "street": "50th Street NW",
      "city": "Edmonton",
      "province": "AB",
      "postalCode": "T5A 5J6",
      "phoneNumber": "(780) 944-2761",
      "pickUpEnabled": "true"
    },
    {
      "storeNumber": 1789,
      "storeName": "1789 - Brant St",
      "latitude": 43.3440160251084,
      "longitude": -79.8255811328923,
      "eCommOnly": "Y",
      "streetNumber": 1220,
      "street": "Brant St",
      "city": "Burlington",
      "province": "ON",
      "postalCode": "L7P 1X8",
      "phoneNumber": "",
      "pickUpEnabled": "true"
    },
    {
      "storeNumber": 1255,
      "storeName": "1255 - Discovery Way",
      "latitude": 53.2708513975042,
      "longitude": -113.564904967683,
      "eCommOnly": "Y",
      "streetNumber": 5415,
      "street": "Discovery Way",
      "city": "Leduc",
      "province": "AB",
      "postalCode": "T9E 8N4",
      "phoneNumber": "",
      "pickUpEnabled": "true"
    },
    {
      "storeNumber": 1728,
      "storeName": "1728 - Market Dr",
      "latitude": 43.5230591278402,
      "longitude": -79.9009238707888,
      "eCommOnly": "Y",
      "streetNumber": 50,
      "street": "Market Dr",
      "city": "Milton",
      "province": "ON",
      "postalCode": "L9T 3H5",
      "phoneNumber": "(905) 876-3316 X0",
      "pickUpEnabled": "true"
    },
    {
      "storeNumber": 1252,
      "storeName": "1252 - Sierra Springs",
      "latitude": 51.2695418979267,
      "longitude": -114.004110021373,
      "eCommOnly": "Y",
      "streetNumber": 130,
      "street": "Sierra Springs Drive SE",
      "city": "Airdrie",
      "province": "AB",
      "postalCode": "T4B 3G6",
      "phoneNumber": "(403) 945-2226 X0",
      "pickUpEnabled": "true"
    },
    {
      "storeNumber": 1730,
      "storeName": "1730 - Stewart Blvd",
      "latitude": 44.6009196882471,
      "longitude": -75.7055893352929,
      "eCommOnly": "Y",
      "streetNumber": 358,
      "street": "Stewart Blvd",
      "city": "Brockville",
      "province": "ON",
      "postalCode": "K6V 4X1",
      "phoneNumber": "(613) 498-1522 X0",
      "pickUpEnabled": "true"
    },
    {
      "storeNumber": 1250,
      "storeName": "1250 - Dundas Street",
      "latitude": 43.1907671202944,
      "longitude": -80.3668203424033,
      "eCommOnly": "Y",
      "streetNumber": 82,
      "street": "Dundas Street East",
      "city": "Paris",
      "province": "ON",
      "postalCode": "N3L 3H5",
      "phoneNumber": "(519) 442-1005 X0",
      "pickUpEnabled": "true"
    },
    {
      "storeNumber": 1263,
      "storeName": "1263 - Tower Hill Rd",
      "latitude": 44.3270159457433,
      "longitude": -78.3394144349224,
      "eCommOnly": "Y",
      "streetNumber": 497,
      "street": "Tower Hill Road",
      "city": "Peterborough",
      "province": "ON",
      "postalCode": "K9H 7S3",
      "phoneNumber": "(705) 745-7997 X0",
      "pickUpEnabled": "true"
    },
    {
      "storeNumber": 1737,
      "storeName": "1737 - Kingston Rd",
      "latitude": 43.8472037645822,
      "longitude": -79.0751003710741,
      "eCommOnly": "Y",
      "streetNumber": 1680,
      "street": "Kingston Rd",
      "city": "Pickering",
      "province": "ON",
      "postalCode": "L1V 5R1",
      "phoneNumber": "(905) 428-2200 X0",
      "pickUpEnabled": "true"
    },
    {
      "storeNumber": 1262,
      "storeName": "1262 - Louie Dr",
      "latitude": 49.8333333293696,
      "longitude": -119.633333329084,
      "eCommOnly": "Y",
      "streetNumber": 2115,
      "street": "Louie Drive",
      "city": "West Kelowna",
      "province": "BC",
      "postalCode": "V4T 3H1",
      "phoneNumber": "(250) 707-1900 X0",
      "pickUpEnabled": "true"
    },
    {
      "storeNumber": 1736,
      "storeName": "1736 - Champlain St",
      "latitude": 46.0929789276529,
      "longitude": -64.7619179907369,
      "eCommOnly": "Y",
      "streetNumber": 9,
      "street": "Champlain St",
      "city": "Dieppe",
      "province": "NB",
      "postalCode": "E1A 1N4",
      "phoneNumber": "(506) 859-8608 X0",
      "pickUpEnabled": "true"
    },
    {
      "storeNumber": 1261,
      "storeName": 1261,
      "latitude": 50.714113766326,
      "longitude": -113.97614283058,
      "eCommOnly": "Y",
      "streetNumber": 31,
      "street": "Southridge Dr",
      "city": "Okotoks",
      "province": "AB",
      "postalCode": "T1S 2N3",
      "phoneNumber": "(403) 938-8785 X0",
      "pickUpEnabled": "true"
    },
    {
      "storeNumber": 1260,
      "storeName": "1260 - Markham Rd",
      "latitude": 43.85444,
      "longitude": -79.255809,
      "eCommOnly": "Y",
      "streetNumber": 7750,
      "street": "Markham Road",
      "city": "Markham",
      "province": "ON",
      "postalCode": "L3S 3K1",
      "phoneNumber": "(905) 209-9508 X0",
      "pickUpEnabled": "true"
    },
    {
      "storeNumber": 1738,
      "storeName": "1738 - Merivale Rd",
      "latitude": 45.3497859601424,
      "longitude": -75.7329612123847,
      "eCommOnly": "Y",
      "streetNumber": 1600,
      "street": "Merivale Rd",
      "city": "Nepean",
      "province": "ON",
      "postalCode": "K2G 5J8",
      "phoneNumber": "(613) 723-8017 X0",
      "pickUpEnabled": "true"
    },
    {
      "storeNumber": 1259,
      "storeName": "1259 - Marine Dr",
      "latitude": 49.3222106910017,
      "longitude": -123.097663564465,
      "eCommOnly": "Y",
      "streetNumber": 879,
      "street": "Marine Drive",
      "city": "North Vancouver",
      "province": "BC",
      "postalCode": "V7P 1R7",
      "phoneNumber": "(604) 903-1060 X0",
      "pickUpEnabled": "true"
    },
    {
      "storeNumber": 1741,
      "storeName": "1741 - Grand Lake Rd",
      "latitude": 46.1458976718909,
      "longitude": -60.1555267469411,
      "eCommOnly": "Y",
      "streetNumber": 482,
      "street": "Grand Lake Road",
      "city": "Sydney",
      "province": "NS",
      "postalCode": "B1P 5S8",
      "phoneNumber": "(902) 562-3232 X0",
      "pickUpEnabled": "true"
    },
    {
      "storeNumber": 1258,
      "storeName": "1258 - Hawkins St",
      "latitude": 49.2537401973998,
      "longitude": -122.738479885224,
      "eCommOnly": "Y",
      "streetNumber": 2105,
      "street": "Hawkins Street",
      "city": "Port Coquitlam",
      "province": "BC",
      "postalCode": "V3C 5Z8",
      "phoneNumber": "(604) 472-2510",
      "pickUpEnabled": "true"
    },
    {
      "storeNumber": 1257,
      "storeName": "1257 - King George Blvd",
      "latitude": 49.1635661946554,
      "longitude": -122.845626042784,
      "eCommOnly": "Y",
      "streetNumber": 7488,
      "street": "King George Blvd",
      "city": "Surrey",
      "province": "BC",
      "postalCode": "V3W 0H9",
      "phoneNumber": "(604) 595-8391",
      "pickUpEnabled": "true"
    },
    {
      "storeNumber": 1743,
      "storeName": "1743 - York Blvd",
      "latitude": 43.26051018,
      "longitude": -79.8737907691391,
      "eCommOnly": "Y",
      "streetNumber": 151,
      "street": "York Blvd",
      "city": "Hamilton",
      "province": "ON",
      "postalCode": "L8R 3L4",
      "phoneNumber": "(905) 572-6300 X0",
      "pickUpEnabled": "true"
    },
    {
      "storeNumber": 1256,
      "storeName": "1256 - Taunton Rd",
      "latitude": 43.915999552982,
      "longitude": -78.9549623717396,
      "eCommOnly": "Y",
      "streetNumber": 50,
      "street": "Taunton Road East",
      "city": "Whitby",
      "province": "ON",
      "postalCode": "L1R 3L5",
      "phoneNumber": "(905) 655-5333",
      "pickUpEnabled": "true"
    },
    {
      "storeNumber": 1270,
      "storeName": "1270 - Eagle Landing",
      "latitude": 49.151651826417,
      "longitude": -121.977261521048,
      "eCommOnly": "Y",
      "streetNumber": 8249,
      "street": "Eagle Landing Pkwy",
      "city": "Chilliwack",
      "province": "BC",
      "postalCode": "V2P 7K6",
      "phoneNumber": "(604) 701-3480 X0",
      "pickUpEnabled": "true"
    },
    {
      "storeNumber": 1744,
      "storeName": "1744 - County Court Blvd",
      "latitude": 43.6622383510342,
      "longitude": -79.7268152602997,
      "eCommOnly": "Y",
      "streetNumber": 2,
      "street": "County Court Blvd",
      "city": "Brampton",
      "province": "ON",
      "postalCode": "L6W 3W8",
      "phoneNumber": "",
      "pickUpEnabled": "true"
    },
    {
      "storeNumber": 1271,
      "storeName": "1271 - Old Placentia",
      "latitude": 47.5067373236206,
      "longitude": -52.8148995104195,
      "eCommOnly": "Y",
      "streetNumber": 160,
      "street": "Old Placentia Rd.",
      "city": "Mount Pearl",
      "province": "NL",
      "postalCode": "A1N 4Y9",
      "phoneNumber": "(709) 745-6637 X0",
      "pickUpEnabled": "true"
    },
    {
      "storeNumber": 1745,
      "storeName": "1745 - The Queensway",
      "latitude": 43.6211993019438,
      "longitude": -79.5254170871843,
      "eCommOnly": "Y",
      "streetNumber": 1255,
      "street": "The Queensway",
      "city": "Etobicoke",
      "province": "ON",
      "postalCode": "M8Z 1S1",
      "phoneNumber": "(416) 251-4100",
      "pickUpEnabled": "true"
    },
    {
      "storeNumber": 1268,
      "storeName": "1268 - Kelsey Dr",
      "latitude": 47.5565698126557,
      "longitude": -52.7822401034442,
      "eCommOnly": "Y",
      "streetNumber": 75,
      "street": "Kelsey Drive",
      "city": "St. John\u0027s",
      "province": "NL",
      "postalCode": "A1B 0C7",
      "phoneNumber": "(709) 722-9687 X0",
      "pickUpEnabled": "true"
    },
    {
      "storeNumber": 1269,
      "storeName": "1269 - Gordon Rd",
      "latitude": 50.40369,
      "longitude": -104.619609,
      "eCommOnly": "Y",
      "streetNumber": 2615,
      "street": "Gordon Road",
      "city": "Regina",
      "province": "SK",
      "postalCode": "S4S 6H7",
      "phoneNumber": "(306) 545-6005 X0",
      "pickUpEnabled": "true"
    },
    {
      "storeNumber": 1267,
      "storeName": "1267 - Hillside Dr",
      "latitude": 50.6552818047751,
      "longitude": -120.377930840171,
      "eCommOnly": "Y",
      "streetNumber": 1395,
      "street": "Hillside Drive",
      "city": "Kamloops",
      "province": "BC",
      "postalCode": "V2E 2R7",
      "phoneNumber": "(250) 571-1700 X0",
      "pickUpEnabled": "true"
    },
    {
      "storeNumber": 1264,
      "storeName": "1264 - Yonge St",
      "latitude": 43.8943299576037,
      "longitude": -79.4425269006465,
      "eCommOnly": "Y",
      "streetNumber": 10909,
      "street": "Yonge Street",
      "city": "Richmond Hill",
      "province": "ON",
      "postalCode": "L4C 3E3",
      "phoneNumber": "",
      "pickUpEnabled": "true"
    },
    {
      "storeNumber": 1752,
      "storeName": "1752 - Davis Dr",
      "latitude": 44.0658263563107,
      "longitude": -79.4318203800554,
      "eCommOnly": "Y",
      "streetNumber": 1111,
      "street": "Unit 44",
      "city": "Newmarket",
      "province": "ON",
      "postalCode": "L3Y 8X2",
      "phoneNumber": "(905) 853-3311 X0",
      "pickUpEnabled": "true"
    },
    {
      "storeNumber": 2573,
      "storeName": "2573 - Arthur St",
      "latitude": 43.5831575258737,
      "longitude": -80.5622472687153,
      "eCommOnly": "Y",
      "streetNumber": 315,
      "street": "Arthur Street S",
      "city": "Elmira",
      "province": "ON",
      "postalCode": " N3B 3L5",
      "phoneNumber": "(519) 669-4640 X0",
      "pickUpEnabled": "true"
    },
    {
      "storeNumber": 1753,
      "storeName": "1753 - Upper Ottawa St",
      "latitude": 43.1910032425219,
      "longitude": -79.8437627679016,
      "eCommOnly": "Y",
      "streetNumber": 1575,
      "street": "Upper Ottawa St",
      "city": "Hamilton",
      "province": "ON",
      "postalCode": "L8W 3E2",
      "phoneNumber": "(905) 389-9904 X0",
      "pickUpEnabled": "true"
    },
    {
      "storeNumber": 1276,
      "storeName": "1137 - Lawrence St",
      "latitude": 43.7468903057102,
      "longitude": -79.2878148562947,
      "eCommOnly": "Y",
      "streetNumber": 2130,
      "street": " Lawrence Ave E",
      "city": "Scarborough",
      "province": "ON",
      "postalCode": "M1R 3A6",
      "phoneNumber": "(416) 759-3783 X0",
      "pickUpEnabled": "true"
    },
    {
      "storeNumber": 1754,
      "storeName": "1754 - Wonderland Rd",
      "latitude": 42.9894443654319,
      "longitude": -81.2953534494499,
      "eCommOnly": "Y",
      "streetNumber": 735,
      "street": "Wonderland Rd N",
      "city": "London",
      "province": "ON",
      "postalCode": "N6H 4L1",
      "phoneNumber": "(519) 657-5241 X0",
      "pickUpEnabled": "true"
    },
    {
      "storeNumber": 1755,
      "storeName": "1755 - Memorial Ave",
      "latitude": 44.5907404696421,
      "longitude": -79.4243664418854,
      "eCommOnly": "Y",
      "streetNumber": 390,
      "street": "Memorial Ave",
      "city": "Orillia",
      "province": "ON",
      "postalCode": "L3V 6K8",
      "phoneNumber": "(705) 327-6667 X0",
      "pickUpEnabled": "true"
    },
    {
      "storeNumber": 1758,
      "storeName": "1758 - Huron Church",
      "latitude": 42.2868115129107,
      "longitude": -83.0574664943268,
      "eCommOnly": "Y",
      "streetNumber": 1690,
      "street": "Huron Church Rd",
      "city": "Windsor",
      "province": "ON",
      "postalCode": "N9C 2L1",
      "phoneNumber": "(519) 973-4686 X0",
      "pickUpEnabled": "true"
    },
    {
      "storeNumber": 1702,
      "storeName": "1702 - 22nd St",
      "latitude": 52.238799841979,
      "longitude": -113.817113371155,
      "eCommOnly": "Y",
      "streetNumber": 5111,
      "street": "22nd Street",
      "city": "Red Deer",
      "province": "AB",
      "postalCode": "T4R 2K1",
      "phoneNumber": "(403) 755-1393 X0",
      "pickUpEnabled": "true"
    },
    {
      "storeNumber": 1701,
      "storeName": "1701 - Broadway",
      "latitude": 49.2642983345654,
      "longitude": -123.176075232388,
      "eCommOnly": "Y",
      "streetNumber": 3204,
      "street": "Broadway W",
      "city": "Vancouver",
      "province": "BC",
      "postalCode": "V6K 2H4",
      "phoneNumber": "(604) 732-8100 X0",
      "pickUpEnabled": "true"
    },
    {
      "storeNumber": 1155,
      "storeName": "1155 - MacLeod Trl",
      "latitude": 51.0434571521561,
      "longitude": -114.058527489809,
      "eCommOnly": "Y",
      "streetNumber": 8900,
      "street": "MacLeod Trl SE",
      "city": "Calgary",
      "province": "AB",
      "postalCode": "T2H 0M4",
      "phoneNumber": "(403) 252-2283 X0",
      "pickUpEnabled": "true"
    },
    {
      "storeNumber": 1157,
      "storeName": "1157 - Woodlawn",
      "latitude": 43.5582657878456,
      "longitude": -80.2867551988502,
      "eCommOnly": "Y",
      "streetNumber": 138,
      "street": "Woodlawn Road West",
      "city": "Guelph",
      "province": "ON",
      "postalCode": "N1H 1B2",
      "phoneNumber": "(519) 836-8000 X0",
      "pickUpEnabled": "true"
    },
    {
      "storeNumber": 1156,
      "storeName": "1156 - Ontario St",
      "latitude": 43.371091568354,
      "longitude": -80.9586658679359,
      "eCommOnly": "Y",
      "streetNumber": 684,
      "street": "Ontario St",
      "city": "Stratford",
      "province": "ON",
      "postalCode": "N5A 3J7",
      "phoneNumber": "(519) 271-2171 X0",
      "pickUpEnabled": "true"
    },
    {
      "storeNumber": 1710,
      "storeName": "1710 - 100th Ave",
      "latitude": 55.1707484022724,
      "longitude": -118.824664442581,
      "eCommOnly": "Y",
      "streetNumber": 10820,
      "street": "100th Ave",
      "city": "Grande Prairie",
      "province": "AB",
      "postalCode": "T8V 7K1",
      "phoneNumber": "",
      "pickUpEnabled": "true"
    },
    {
      "storeNumber": 1708,
      "storeName": "1708 - Currents Dr",
      "latitude": 53.4369753732678,
      "longitude": -113.606349019234,
      "eCommOnly": "Y",
      "streetNumber": 6303,
      "street": "Currents Drive NW",
      "city": "Edmonton",
      "province": "AB",
      "postalCode": "T6W 0L9",
      "phoneNumber": "(780) 414-6178 X0",
      "pickUpEnabled": "true"
    },
    {
      "storeNumber": 1706,
      "storeName": "1706 - Holland St",
      "latitude": 44.1082758807149,
      "longitude": -79.5916647446711,
      "eCommOnly": "Y",
      "streetNumber": 489,
      "street": "Holland St. W",
      "city": "Bradford",
      "province": "ON",
      "postalCode": "L3Z 0C1",
      "phoneNumber": "(905) 775-7877 X0",
      "pickUpEnabled": "true"
    },
    {
      "storeNumber": 1167,
      "storeName": "1167 - Dixie Rd",
      "latitude": 43.6424685158585,
      "longitude": -79.6298248156287,
      "eCommOnly": "Y",
      "streetNumber": 5165,
      "street": "Dixie Rd",
      "city": "Mississauga",
      "province": "ON",
      "postalCode": "L4W 4G1",
      "phoneNumber": "",
      "pickUpEnabled": "true"
    },
    {
      "storeNumber": 1705,
      "storeName": "1705 - The Boardwalk",
      "latitude": 43.4380869739279,
      "longitude": -80.5633625606434,
      "eCommOnly": "Y",
      "streetNumber": 340,
      "street": "The Boardwalk",
      "city": "Waterloo",
      "province": "ON",
      "postalCode": "N2T 0A6",
      "phoneNumber": "(519) 745-5665 X0",
      "pickUpEnabled": "true"
    },
    {
      "storeNumber": 1704,
      "storeName": "1704 - Mountain Rd",
      "latitude": 46.1217684916396,
      "longitude": -64.8503850337732,
      "eCommOnly": "Y",
      "streetNumber": 1933,
      "street": "Mountain Road",
      "city": "Moncton",
      "province": "NB",
      "postalCode": "E1G 1A8",
      "phoneNumber": "(506) 867-7947 X0",
      "pickUpEnabled": "true"
    },
    {
      "storeNumber": 2656,
      "storeName": "2656 - ",
      "latitude": 44.427319337354,
      "longitude": -81.3959459875243,
      "eCommOnly": "Y",
      "streetNumber": 260,
      "street": "Goderich St",
      "city": "Port Elgin",
      "province": "ON",
      "postalCode": "N0H 2C1",
      "phoneNumber": "(519) 389-5115 X0",
      "pickUpEnabled": "true"
    },
    {
      "storeNumber": 8888,
      "storeName": "1111 - Bloor St",
      "latitude": 43.6479869176813,
      "longitude": -79.5083177015733,
      "eCommOnly": "Y",
      "streetNumber": 2955,
      "street": "Bloor St W",
      "city": "Etobicoke",
      "province": "ON",
      "postalCode": "M8X 1B8",
      "phoneNumber": "(416) 233-4573",
      "pickUpEnabled": "true"
    },
    {
      "storeNumber": 1173,
      "storeName": "1173 - Bloor St",
      "latitude": 43.6718879147061,
      "longitude": -79.3789242720227,
      "eCommOnly": "Y",
      "streetNumber": 345,
      "street": "Bloor St E ",
      "city": "Toronto",
      "province": "ON",
      "postalCode": "M4W 3J6",
      "phoneNumber": "(416) 944-2472",
      "pickUpEnabled": "true"
    },
    {
      "storeNumber": 1176,
      "storeName": "1176 - Douglas St",
      "latitude": 48.42740102086,
      "longitude": -123.364424013642,
      "eCommOnly": "Y",
      "streetNumber": 3233,
      "street": "Douglas St",
      "city": "Victoria",
      "province": "BC",
      "postalCode": "V8Z 3K8",
      "phoneNumber": "",
      "pickUpEnabled": "true"
    },
    {
      "storeNumber": 1726,
      "storeName": "1726 - Upper Middle Rd",
      "latitude": 43.482525361091,
      "longitude": -79.6936356132526,
      "eCommOnly": "Y",
      "streetNumber": 1011,
      "street": "Upper Middle Rd E",
      "city": "Oakville",
      "province": "ON",
      "postalCode": "L6H 4L2",
      "phoneNumber": "(905) 844-8751",
      "pickUpEnabled": "true"
    },
    {
      "storeNumber": 1727,
      "storeName": "1727 - Highland Rd",
      "latitude": 43.4352174498833,
      "longitude": -80.5160043642028,
      "eCommOnly": "Y",
      "streetNumber": 525,
      "street": "Highland Road W",
      "city": "Kitchener",
      "province": "ON",
      "postalCode": "N2M 5K1",
      "phoneNumber": "(519) 578-7030 X0",
      "pickUpEnabled": "true"
    },
    {
      "storeNumber": 1178,
      "storeName": "1178 - Lansdowne St",
      "latitude": 44.2828544613217,
      "longitude": -78.3415157949961,
      "eCommOnly": "Y",
      "streetNumber": 933,
      "street": "Lansdowne St W",
      "city": "Peterborough",
      "province": "ON",
      "postalCode": "K9J 1Z5",
      "phoneNumber": "(705) 745-5577 X0",
      "pickUpEnabled": "true"
    },
    {
      "storeNumber": 1187,
      "storeName": "1187 - Fairway Rd",
      "latitude": 43.419904984452,
      "longitude": -80.449943992459,
      "eCommOnly": "Y",
      "streetNumber": 560,
      "street": "Fairway Rd S",
      "city": "Kitchener",
      "province": "ON",
      "postalCode": "N2C 1X3",
      "phoneNumber": "(519) 894-1311 X0",
      "pickUpEnabled": "true"
    },
    {
      "storeNumber": 1186,
      "storeName": "1186 - King St",
      "latitude": 43.906079,
      "longitude": -78.808922,
      "eCommOnly": "Y",
      "streetNumber": 1427,
      "street": "King St E",
      "city": "Courtice",
      "province": "ON",
      "postalCode": "L1E 2J6",
      "phoneNumber": "(905) 571-0000",
      "pickUpEnabled": "true"
    },
    {
      "storeNumber": 1184,
      "storeName": "1184 - Yonge St",
      "latitude": 43.7481194384414,
      "longitude": -79.407584665616,
      "eCommOnly": "Y",
      "streetNumber": 4211,
      "street": "Yonge St",
      "city": "Willowdale",
      "province": "ON",
      "postalCode": "M2P 2A9",
      "phoneNumber": "(416) 223-1170",
      "pickUpEnabled": "false"
    },
    {
      "storeNumber": 1191,
      "storeName": "1191 - Dixon Rd",
      "latitude": 43.6904148374357,
      "longitude": -79.5764252403503,
      "eCommOnly": "Y",
      "streetNumber": 642,
      "street": "Dixon Rd",
      "city": "Etobicoke",
      "province": "ON",
      "postalCode": "M9W 1J1",
      "phoneNumber": "(416) 614-2502 X0",
      "pickUpEnabled": "true"
    },
    {
      "storeNumber": 1190,
      "storeName": "1190 - Bell Blvd",
      "latitude": 44.1885810104947,
      "longitude": -77.3948528972555,
      "eCommOnly": "Y",
      "streetNumber": 15,
      "street": "Bell Blvd",
      "city": "Belleville",
      "province": "ON",
      "postalCode": "K8P 4S5",
      "phoneNumber": "(613) 962-7010 X0",
      "pickUpEnabled": "true"
    },
    {
      "storeNumber": 1189,
      "storeName": "1189MainStMainStMainStMainStMainStMainStMainStMainStMainSt1154321",
      "latitude": 44.6815774151177,
      "longitude": -63.5415221039011,
      "eCommOnly": "Y",
      "streetNumber": 100,
      "street": "Main St",
      "city": "Dartmouth",
      "province": "NS",
      "postalCode": "B2X 1R5",
      "phoneNumber": "",
      "pickUpEnabled": "true"
    },
    {
      "storeNumber": 1188,
      "storeName": "1181 - Kingston Rd",
      "latitude": 43.7677356414092,
      "longitude": -79.1896233178861,
      "eCommOnly": "Y",
      "streetNumber": 4410,
      "street": "Kingston Rd",
      "city": "Scarborough",
      "province": "ON",
      "postalCode": "M1E 2N5",
      "phoneNumber": "",
      "pickUpEnabled": "true"
    },
    {
      "storeNumber": 1193,
      "storeName": "1193 - Bathurst",
      "latitude": 43.8098,
      "longitude": -79.451849,
      "eCommOnly": "Y",
      "streetNumber": 7700,
      "street": "Bathurst St",
      "city": "Thornhill",
      "province": "ON",
      "postalCode": "L4J 7Y3",
      "phoneNumber": "(905) 771-7666 X0",
      "pickUpEnabled": "true"
    },
    {
      "storeNumber": 707,
      "storeName": "707 - Queen St",
      "latitude": 43.6716109014836,
      "longitude": -79.2927834444508,
      "eCommOnly": "Y",
      "streetNumber": 2148,
      "street": "Queen St E",
      "city": "Toronto",
      "province": "ON",
      "postalCode": "M4E 1E3",
      "phoneNumber": "(416) 693-2881",
      "pickUpEnabled": "true"
    },
    {
      "storeNumber": 2650,
      "storeName": "2650 - Richmond Blvd",
      "latitude": 44.2612797832167,
      "longitude": -76.9633185765983,
      "eCommOnly": "Y",
      "streetNumber": 1,
      "street": "Richmond Blvd",
      "city": "Napanee",
      "province": "ON",
      "postalCode": "K7R 3S3",
      "phoneNumber": "(613) 354-8944 X0",
      "pickUpEnabled": "true"
    },
    {
      "storeNumber": 1192,
      "storeName": "1192 - Burnhamthorpe Rd",
      "latitude": 43.566600393363,
      "longitude": -79.666482068297,
      "eCommOnly": "Y",
      "streetNumber": 1170,
      "street": "Burnhamthorpe Rd W",
      "city": "Mississauga",
      "province": "ON",
      "postalCode": "L5C 4E6",
      "phoneNumber": "(905) 270-1229 X0",
      "pickUpEnabled": "true"
    },
    {
      "storeNumber": 1197,
      "storeName": "1197 - Bayly St",
      "latitude": 43.8427712699791,
      "longitude": -79.0238240430499,
      "eCommOnly": "Y",
      "streetNumber": 105,
      "street": "Bayly St W",
      "city": "Ajax",
      "province": "ON",
      "postalCode": "L1S 7K7",
      "phoneNumber": "",
      "pickUpEnabled": "true"
    },
    {
      "storeNumber": 1196,
      "storeName": "1196 - Keil Dr",
      "latitude": 42.3895836005427,
      "longitude": -82.2045254840235,
      "eCommOnly": "Y",
      "streetNumber": 160,
      "street": "Keil Dr S",
      "city": "Chatham",
      "province": "ON",
      "postalCode": "N7M 6B7",
      "phoneNumber": "(519) 351-6440 X0",
      "pickUpEnabled": "true"
    },
    {
      "storeNumber": 1203,
      "storeName": "1203 - Manning Rd",
      "latitude": 42.3150746373605,
      "longitude": -82.8689170271791,
      "eCommOnly": "Y",
      "streetNumber": 500,
      "street": "Manning Rd, RR #1",
      "city": "Windsor",
      "province": "ON",
      "postalCode": "N8N 5H3",
      "phoneNumber": "(519) 739-3101 X0",
      "pickUpEnabled": "true"
    },
    {
      "storeNumber": 1206,
      "storeName": "1206 - Regional Highway#2",
      "latitude": 43.9095181112961,
      "longitude": -78.715883350483,
      "eCommOnly": "Y",
      "streetNumber": 2310,
      "street": "Regional Highway#2",
      "city": "Bowmanville",
      "province": "ON",
      "postalCode": "L1C 0K5",
      "phoneNumber": "(905) 623-5995 X0",
      "pickUpEnabled": "true"
    },
    {
      "storeNumber": 1204,
      "storeName": "1204 - Bedford Highway",
      "latitude": 44.7368322424598,
      "longitude": -63.6545436510569,
      "eCommOnly": "Y",
      "streetNumber": 1658,
      "street": "Bedford Highway",
      "city": "Bedford",
      "province": "NS",
      "postalCode": "B4A 2X9",
      "phoneNumber": "(902) 835-7974",
      "pickUpEnabled": "true"
    },
    {
      "storeNumber": 1211,
      "storeName": "1211 - Barrydowne Rd",
      "latitude": 46.5208314140738,
      "longitude": -80.9442390209938,
      "eCommOnly": "Y",
      "streetNumber": 1109,
      "street": "Barrydowne Rd",
      "city": "Sudbury",
      "province": "ON",
      "postalCode": "P3A 5Z9",
      "phoneNumber": "(705) 566-4966 X0",
      "pickUpEnabled": "true"
    },
    {
      "storeNumber": 1208,
      "storeName": "1208 - Overlea Blvd",
      "latitude": 43.7075619107757,
      "longitude": -79.3437758432241,
      "eCommOnly": "Y",
      "streetNumber": 60,
      "street": "Overlea Blvd",
      "city": "Toronto",
      "province": "ON",
      "postalCode": "M4H 1B6",
      "phoneNumber": "(416) 696-2268",
      "pickUpEnabled": "true"
    },
    {
      "storeNumber": 1209,
      "storeName": "1209 - Yonge St",
      "latitude": 43.8542821322274,
      "longitude": -79.4334895266957,
      "eCommOnly": "Y",
      "streetNumber": 9350,
      "street": "Yonge St",
      "city": "Richmond Hill",
      "province": "ON",
      "postalCode": "L5C 5G2",
      "phoneNumber": "(905) 737-4307 X0",
      "pickUpEnabled": "true"
    },
    {
      "storeNumber": 1214,
      "storeName": "1214 - Airport Road",
      "latitude": 43.7613753758978,
      "longitude": -79.7200210122897,
      "eCommOnly": "Y",
      "streetNumber": 9950,
      "street": "Airport Road",
      "city": "Brampton",
      "province": "ON",
      "postalCode": "L6S 0C5",
      "phoneNumber": "(905) 789-7022",
      "pickUpEnabled": "true"
    },
    {
      "storeNumber": 1215,
      "storeName": "1215 - Strandherd Dr",
      "latitude": 45.2688089460875,
      "longitude": -75.7505513535065,
      "eCommOnly": "Y",
      "streetNumber": 3775,
      "street": "Strandherd Dr",
      "city": "Barrhaven",
      "province": "ON",
      "postalCode": "K2J 4B1",
      "phoneNumber": "",
      "pickUpEnabled": "true"
    },
    {
      "storeNumber": 1212,
      "storeName": "New Store",
      "latitude": 42.2510927126135,
      "longitude": -82.9627998749356,
      "eCommOnly": "Y",
      "streetNumber": 4450,
      "street": "Walker Rd",
      "city": "Windsor",
      "province": "ON",
      "postalCode": "N8W 3T5",
      "phoneNumber": "(519) 250-7106",
      "pickUpEnabled": "true"
    },
    {
      "storeNumber": 1913,
      "storeName": "1913 - Algonquin Ave",
      "latitude": 46.3321322826871,
      "longitude": -79.4663606972972,
      "eCommOnly": "Y",
      "streetNumber": 1899,
      "street": "Algonquin Ave",
      "city": "North Bay",
      "province": "ON",
      "postalCode": "P1B 4Y8",
      "phoneNumber": "(705) 474-4111 X0",
      "pickUpEnabled": "true"
    },
    {
      "storeNumber": 1912,
      "storeName": "1912 - Signal Hill Ctr",
      "latitude": 51.0218394005242,
      "longitude": -114.164401217164,
      "eCommOnly": "Y",
      "streetNumber": 5658,
      "street": "Signal Hill Ctr SW ",
      "city": "Calgary",
      "province": "AB",
      "postalCode": "T3H 3P8",
      "phoneNumber": "",
      "pickUpEnabled": "true"
    },
    {
      "storeNumber": 1915,
      "storeName": "1915 - Kingston Rd",
      "latitude": 43.819093462065,
      "longitude": -79.1155076788519,
      "eCommOnly": "Y",
      "streetNumber": 734,
      "street": "Kingston Rd",
      "city": "Pickering",
      "province": "ON",
      "postalCode": "L1V 1A8",
      "phoneNumber": "(905) 422-7000 X0",
      "pickUpEnabled": "true"
    },
    {
      "storeNumber": 1914,
      "storeName": "1914 - Hwy 47",
      "latitude": 44.0395694052617,
      "longitude": -79.1916250464936,
      "eCommOnly": "Y",
      "streetNumber": 319,
      "street": "Hwy 47",
      "city": "Uxbridge",
      "province": "ON",
      "postalCode": "L9P 1N2",
      "phoneNumber": "(905) 852-2286 X0",
      "pickUpEnabled": "true"
    },
    {
      "storeNumber": 1917,
      "storeName": "1917 - Niagara St",
      "latitude": 43.0176103485434,
      "longitude": -79.2497455294943,
      "eCommOnly": "Y",
      "streetNumber": 830,
      "street": "Niagara St",
      "city": "Welland",
      "province": "ON",
      "postalCode": "L3C 1M3",
      "phoneNumber": "(905) 735-4040 X0",
      "pickUpEnabled": "true"
    },
    {
      "storeNumber": 1916,
      "storeName": "1916 - Dundas St",
      "latitude": 43.3551272585833,
      "longitude": -80.2881534749931,
      "eCommOnly": "Y",
      "streetNumber": 101,
      "street": "Dundas St S",
      "city": "Cambridge",
      "province": "ON",
      "postalCode": "N1R 5N6",
      "phoneNumber": "(519) 624-9595 X0",
      "pickUpEnabled": "true"
    },
    {
      "storeNumber": 1919,
      "storeName": "1919 - Hwy 118",
      "latitude": 45.04066819554,
      "longitude": -79.3539034732254,
      "eCommOnly": "Y",
      "streetNumber": 150,
      "street": "Hwy 118 W",
      "city": "Bracebridge",
      "province": "ON",
      "postalCode": "P1L 1T4",
      "phoneNumber": "(705) 645-7947 X0",
      "pickUpEnabled": "true"
    },
    {
      "storeNumber": 1918,
      "storeName": "1918 - Young St",
      "latitude": 44.1486900955506,
      "longitude": -79.8807837146664,
      "eCommOnly": "Y",
      "streetNumber": 36,
      "street": "Young St",
      "city": "Alliston",
      "province": "ON",
      "postalCode": "L9R 1P8",
      "phoneNumber": "(705) 434-9990 X0",
      "pickUpEnabled": "true"
    },
    {
      "storeNumber": 1904,
      "storeName": "1904 - Robie St",
      "latitude": 45.3687658158171,
      "longitude": -63.3065093383361,
      "eCommOnly": "Y",
      "streetNumber": 79,
      "street": "Robie St",
      "city": "Truro",
      "province": "NS",
      "postalCode": "",
      "phoneNumber": "(902) 895-6699 X0",
      "pickUpEnabled": "true"
    },
    {
      "storeNumber": 1907,
      "storeName": "1907 - Windward Dr",
      "latitude": 43.2095792825827,
      "longitude": -79.601217436046,
      "eCommOnly": "Y",
      "streetNumber": 5,
      "street": "Windward Dr",
      "city": "Grimsby",
      "province": "ON",
      "postalCode": "L3M 4E8",
      "phoneNumber": "(905) 945-7575 X0",
      "pickUpEnabled": "true"
    },
    {
      "storeNumber": 1906,
      "storeName": "1906 - Simcoe St",
      "latitude": 42.8594238353028,
      "longitude": -80.7128415394856,
      "eCommOnly": "Y",
      "streetNumber": 400,
      "street": "Simcoe St",
      "city": "Tillsonburg",
      "province": "ON",
      "postalCode": "N4G 4X1",
      "phoneNumber": "(519) 688-4857 X0",
      "pickUpEnabled": "true"
    },
    {
      "storeNumber": 1908,
      "storeName": "1908 - Henderson Dr",
      "latitude": 43.9835407406468,
      "longitude": -79.4646700201062,
      "eCommOnly": "Y",
      "streetNumber": 1,
      "street": "Henderson Dr",
      "city": "Aurora",
      "province": "ON",
      "postalCode": "L4G 4J7",
      "phoneNumber": "(905) 727-7918 X0",
      "pickUpEnabled": "true"
    },
    {
      "storeNumber": 1911,
      "storeName": "1911 - Guelph St",
      "latitude": 43.6495994210163,
      "longitude": -79.8916219691955,
      "eCommOnly": "Y",
      "streetNumber": 320,
      "street": "Guelph St",
      "city": "Georgetown",
      "province": "ON",
      "postalCode": "L7G 4B5",
      "phoneNumber": "(905) 873-6392 X0",
      "pickUpEnabled": "true"
    },
    {
      "storeNumber": 1902,
      "storeName": "1902 - Hanes Rd",
      "latitude": 45.3358607689528,
      "longitude": -79.2329934004918,
      "eCommOnly": "Y",
      "streetNumber": 150,
      "street": "Hanes Rd",
      "city": "Huntsville",
      "province": "ON",
      "postalCode": "P1H 1M4",
      "phoneNumber": "(705) 706-1919 X0",
      "pickUpEnabled": "true"
    },
    {
      "storeNumber": 1903,
      "storeName": "1903 - First St",
      "latitude": 43.9280631704059,
      "longitude": -80.099589650495,
      "eCommOnly": "Y",
      "streetNumber": 93,
      "street": "First St",
      "city": "Orangeville",
      "province": "ON",
      "postalCode": "L9W 2E8",
      "phoneNumber": "(519) 941-4009 X0",
      "pickUpEnabled": "true"
    },
    {
      "storeNumber": 2947,
      "storeName": "2947 - Muskoka Rd",
      "latitude": 44.9097460741812,
      "longitude": -79.3699808468515,
      "eCommOnly": "Y",
      "streetNumber": 1215,
      "street": "Muskoka Road South",
      "city": "Gravenhurst",
      "province": "ON",
      "postalCode": "P1P 1K9",
      "phoneNumber": "",
      "pickUpEnabled": "true"
    },
    {
      "storeNumber": 9999,
      "storeName": "New Store",
      "latitude": 43.659717,
      "longitude": -79.59727,
      "eCommOnly": "Y",
      "streetNumber": 5580,
      "street": "Explorer Drive",
      "city": "Toronto",
      "province": "ON",
      "postalCode": "L4W4Y1",
      "phoneNumber": "(999) 888-7776",
      "pickUpEnabled": "true"
    },
    {
      "storeNumber": 1310,
      "storeName": "1310 - 109 St",
      "latitude": 53.5428196576637,
      "longitude": -113.508449876436,
      "eCommOnly": "Y",
      "streetNumber": 10188,
      "street": "109 St NW",
      "city": "Edmonton",
      "province": "AB",
      "postalCode": "T5J 1M7",
      "phoneNumber": "(780) 421-8112",
      "pickUpEnabled": "true"
    },
    {
      "storeNumber": 1303,
      "storeName": "1303 - Eglinton Ave",
      "latitude": 43.7002591545259,
      "longitude": -79.4287507934376,
      "eCommOnly": "Y",
      "streetNumber": 949,
      "street": "Eglinton Ave W",
      "city": "York",
      "province": "ON",
      "postalCode": "M6C 2C3",
      "phoneNumber": "(416) 783-2345 X0",
      "pickUpEnabled": "true"
    },
    {
      "storeNumber": 1302,
      "storeName": "1302 - Lakeshore Rd",
      "latitude": 43.5459453290253,
      "longitude": -79.5920359244226,
      "eCommOnly": "Y",
      "streetNumber": 252,
      "street": "Lakeshore Rd W",
      "city": "Mississauga",
      "province": "ON",
      "postalCode": "L5H 1G6",
      "phoneNumber": "(905) 891-9299 X0",
      "pickUpEnabled": "true"
    },
    {
      "storeNumber": 1301,
      "storeName": "1301 - Danforth Ave",
      "latitude": 43.6938126284512,
      "longitude": -79.276595004404,
      "eCommOnly": "Y",
      "streetNumber": 3400,
      "street": "Danforth Ave",
      "city": "Scarborough",
      "province": "ON",
      "postalCode": "M1L 1E1",
      "phoneNumber": "(416) 699-2506 X0",
      "pickUpEnabled": "true"
    },
    {
      "storeNumber": 2535,
      "storeName": "2535 - Tenth St",
      "latitude": 44.1550551243099,
      "longitude": -81.0085654382267,
      "eCommOnly": "Y",
      "streetNumber": 815,
      "street": "Tenth Street",
      "city": "Hanover",
      "province": "ON",
      "postalCode": "",
      "phoneNumber": "(519) 364-3444 X0",
      "pickUpEnabled": "true"
    },
    {
      "storeNumber": 1312,
      "storeName": "1312 - Bloor St",
      "latitude": 43.6665792935009,
      "longitude": -79.4044123018475,
      "eCommOnly": "Y",
      "streetNumber": 346,
      "street": "Bloor Street West",
      "city": "Toronto",
      "province": "ON",
      "postalCode": "M5S 1W9",
      "phoneNumber": "(416) 929-8694 X0",
      "pickUpEnabled": "true"
    },
    {
      "storeNumber": 1798,
      "storeName": "1798 - Shawville Blvd",
      "latitude": 50.9016396074525,
      "longitude": -114.065050481404,
      "eCommOnly": "Y",
      "streetNumber": 265,
      "street": "Shawville Blvd SE",
      "city": "Calgary",
      "province": "AB",
      "postalCode": "T2Y 3H9",
      "phoneNumber": "(403) 254-1902 X0",
      "pickUpEnabled": "true"
    },
    {
      "storeNumber": 1797,
      "storeName": "1797 - Bovaird Dr",
      "latitude": 43.713534,
      "longitude": -79.780024,
      "eCommOnly": "Y",
      "streetNumber": 370,
      "street": "Bovaird Dr",
      "city": "Brampton",
      "province": "ON",
      "postalCode": "L6Z 2S8",
      "phoneNumber": "(905) 846-3321 X0",
      "pickUpEnabled": "true"
    },
    {
      "storeNumber": 1794,
      "storeName": "1794 - Fanshawe Park Rd",
      "latitude": 43.0281965275363,
      "longitude": -81.2776717607699,
      "eCommOnly": "Y",
      "streetNumber": 92,
      "street": "Fanshawe Park Rd E",
      "city": "London",
      "province": "ON",
      "postalCode": "N5X 4C5",
      "phoneNumber": "",
      "pickUpEnabled": "true"
    },
    {
      "storeNumber": 1792,
      "storeName": "1792 - Finch Ave",
      "latitude": 43.7530114018755,
      "longitude": -79.5369293412944,
      "eCommOnly": "Y",
      "streetNumber": 2201,
      "street": "Finch Avenue West",
      "city": "Toronto",
      "province": "ON",
      "postalCode": "M9M 2Y9",
      "phoneNumber": "(416) 741-3663 X0",
      "pickUpEnabled": "true"
    },
    {
      "storeNumber": 2320,
      "storeName": 2320,
      "latitude": 45.0645558,
      "longitude": -76.2451987,
      "eCommOnly": "Y",
      "streetNumber": 10455,
      "street": "Hwy 7 RR#4",
      "city": "",
      "province": "ON",
      "postalCode": "K7C 3P2",
      "phoneNumber": "(613) 257-5248 X0",
      "pickUpEnabled": "true"
    },
    {
      "storeNumber": 1973,
      "storeName": "1973 - Bayview Ave",
      "latitude": 43.7911851067567,
      "longitude": -79.3932946106027,
      "eCommOnly": "Y",
      "streetNumber": 3253,
      "street": "Bayview Ave",
      "city": "North York",
      "province": "ON",
      "postalCode": "M2K 1G4",
      "phoneNumber": "",
      "pickUpEnabled": "true"
    },
    {
      "storeNumber": 1974,
      "storeName": "1974 - Jennifer Heil Way",
      "latitude": 53.5414429053582,
      "longitude": -113.934438442796,
      "eCommOnly": "Y",
      "streetNumber": 100,
      "street": "Jennifer Heil Way",
      "city": "Spruce Grove",
      "province": "AB",
      "postalCode": "T7X 4B8",
      "phoneNumber": "(780) 960-3381 X0",
      "pickUpEnabled": "true"
    },
    {
      "storeNumber": 1975,
      "storeName": "1975 - First Commerce Dr",
      "latitude": 44.0143200224463,
      "longitude": -79.4155083173731,
      "eCommOnly": "Y",
      "streetNumber": 28,
      "street": "First Commerce Drive",
      "city": "Aurora",
      "province": "ON",
      "postalCode": "L4G 0H5",
      "phoneNumber": "(905) 841-8558 X0",
      "pickUpEnabled": "true"
    },
    {
      "storeNumber": 1968,
      "storeName": "1968 - Kent St",
      "latitude": 44.351141,
      "longitude": -78.761593,
      "eCommOnly": "Y",
      "streetNumber": 400,
      "street": "Kent Street W",
      "city": "Lindsay",
      "province": "ON",
      "postalCode": "K9V 6K2",
      "phoneNumber": "(705) 324-4502 X0",
      "pickUpEnabled": "true"
    },
    {
      "storeNumber": 2917,
      "storeName": "2917 - Caradoc St",
      "latitude": 42.9483703689148,
      "longitude": -81.6144289080734,
      "eCommOnly": "Y",
      "streetNumber": 329,
      "street": "Caradoc Street S",
      "city": "Strathroy",
      "province": "ON",
      "postalCode": "N7G 2P4",
      "phoneNumber": "(519) 245-2424 X0",
      "pickUpEnabled": "true"
    },
    {
      "storeNumber": 1969,
      "storeName": "1969 - Rochdale Blvd",
      "latitude": 50.496332276367,
      "longitude": -104.645427156716,
      "eCommOnly": "Y",
      "streetNumber": 4436,
      "street": "Rochdale Blvd",
      "city": "Regina",
      "province": "SK",
      "postalCode": "S4X 4P7",
      "phoneNumber": "",
      "pickUpEnabled": "true"
    },
    {
      "storeNumber": 1976,
      "storeName": "1976 - Hurontario S",
      "latitude": 43.6052425280681,
      "longitude": -79.6510834529602,
      "eCommOnly": "Y",
      "streetNumber": 4555,
      "street": "Hurontario St",
      "city": "Mississauga",
      "province": "ON",
      "postalCode": "L4Z 3L9",
      "phoneNumber": "(905) 890-9330",
      "pickUpEnabled": "true"
    },
    {
      "storeNumber": 1977,
      "storeName": "1977 - Dufferin St",
      "latitude": 43.6558858047555,
      "longitude": -79.4338882371112,
      "eCommOnly": "Y",
      "streetNumber": 900,
      "street": "Dufferin Street ",
      "city": "Toronto",
      "province": "ON",
      "postalCode": "M6H 4A9",
      "phoneNumber": "(416) 536-5335",
      "pickUpEnabled": "true"
    },
    {
      "storeNumber": 1978,
      "storeName": "1978 - Kempt Rd",
      "latitude": 44.66226128,
      "longitude": -63.6122799425786,
      "eCommOnly": "Y",
      "streetNumber": 3434,
      "street": "Kempt Rd",
      "city": "Halifax",
      "province": "NS",
      "postalCode": "B3K 4X7",
      "phoneNumber": "",
      "pickUpEnabled": "true"
    },
    {
      "storeNumber": 1957,
      "storeName": "1957 - Rexdale Blvd",
      "latitude": 43.7133392095515,
      "longitude": -79.5791759858938,
      "eCommOnly": "Y",
      "streetNumber": 269,
      "street": "Rexdale Blvd",
      "city": "Rexdale",
      "province": "ON",
      "postalCode": "M9W 1P7",
      "phoneNumber": "(416) 746-2057 X0",
      "pickUpEnabled": "true"
    },
    {
      "storeNumber": 1956,
      "storeName": "1956 - Westville Rd",
      "latitude": 45.5783156965428,
      "longitude": -62.6652913273559,
      "eCommOnly": "Y",
      "streetNumber": 660,
      "street": "Westville Rd",
      "city": "New Glasgow",
      "province": "NS",
      "postalCode": "B2H 2J8",
      "phoneNumber": "(902) 752-5013 X0",
      "pickUpEnabled": "true"
    },
    {
      "storeNumber": 1959,
      "storeName": "1959 - New Pine Grove Rd",
      "latitude": 44.402325468265,
      "longitude": -64.5359794133978,
      "eCommOnly": "Y",
      "streetNumber": 8,
      "street": "New Pine Grove Rd",
      "city": "Bridgewater",
      "province": "NS",
      "postalCode": "B4V 4H5",
      "phoneNumber": "(902) 527-1988 X0",
      "pickUpEnabled": "true"
    },
    {
      "storeNumber": 1958,
      "storeName": "1958 - Queensway Dr",
      "latitude": 42.8478041143355,
      "longitude": -80.2965263353181,
      "eCommOnly": "Y",
      "streetNumber": 101,
      "street": "Queensway Dr E",
      "city": "Simcoe",
      "province": "ON",
      "postalCode": "N3Y 4M5",
      "phoneNumber": "(519) 428-2878 X0",
      "pickUpEnabled": "true"
    },
    {
      "storeNumber": 1953,
      "storeName": "1953 - McEwan Dr",
      "latitude": 43.8607326882618,
      "longitude": -79.714149370617,
      "eCommOnly": "Y",
      "streetNumber": 10,
      "street": "McEwan Dr E",
      "city": "Bolton",
      "province": "ON",
      "postalCode": "L7E 2Y3",
      "phoneNumber": "(905) 957-7895",
      "pickUpEnabled": "true"
    },
    {
      "storeNumber": 1952,
      "storeName": "1952 - Commercial St",
      "latitude": 45.0687600839797,
      "longitude": -64.4425998352513,
      "eCommOnly": "Y",
      "streetNumber": 9269,
      "street": "Commercial St",
      "city": "New Minus",
      "province": "NS",
      "postalCode": "B4N 3G2",
      "phoneNumber": "(902) 681-1761 X0",
      "pickUpEnabled": "true"
    },
    {
      "storeNumber": 1955,
      "storeName": "1955 - Victoria Park Ave",
      "latitude": 43.7727560510558,
      "longitude": -79.3216868550498,
      "eCommOnly": "Y",
      "streetNumber": 2555,
      "street": "Victoria Park Ave",
      "city": "Scarborough",
      "province": "ON",
      "postalCode": "M1T 1A3",
      "phoneNumber": "(416) 494-9693",
      "pickUpEnabled": "true"
    },
    {
      "storeNumber": 1954,
      "storeName": "1954 - St Albert Rd",
      "latitude": 53.6220050915957,
      "longitude": -113.610584371413,
      "eCommOnly": "Y",
      "streetNumber": 140,
      "street": "St Albert Rd",
      "city": "St. Albert",
      "province": "AB",
      "postalCode": "780-458-5313",
      "phoneNumber": "(780) 458-5313 X0",
      "pickUpEnabled": "true"
    },
    {
      "storeNumber": 1964,
      "storeName": "1964 - 18 Ave",
      "latitude": 44.5850755198,
      "longitude": -80.9132815086582,
      "eCommOnly": "Y",
      "streetNumber": 1598,
      "street": "18 Ave E",
      "city": "Owen Sound",
      "province": "ON",
      "postalCode": "N4K 0A4",
      "phoneNumber": "(519) 376-9634 X0",
      "pickUpEnabled": "true"
    },
    {
      "storeNumber": 1961,
      "storeName": "1961 ",
      "latitude": 45.4588572320893,
      "longitude": -75.4948656321036,
      "eCommOnly": "Y",
      "streetNumber": 4290,
      "street": "Innes Rd",
      "city": "Orleans",
      "province": "ON",
      "postalCode": "K4A 5E6",
      "phoneNumber": "(613) 824-7931 X0",
      "pickUpEnabled": "true"
    },
    {
      "storeNumber": 1960,
      "storeName": "1960 - ",
      "latitude": 43.7237797844702,
      "longitude": -79.8113269047161,
      "eCommOnly": "Y",
      "streetNumber": 10900,
      "street": "Hurontario St",
      "city": "Brampton",
      "province": "ON",
      "postalCode": "L7A 3R9",
      "phoneNumber": "(905) 495-7156",
      "pickUpEnabled": "true"
    },
    {
      "storeNumber": 1963,
      "storeName": "1963 - Appleby Line",
      "latitude": 43.3931694606426,
      "longitude": -79.7894844873277,
      "eCommOnly": "Y",
      "streetNumber": 1950,
      "street": "Appleby Line",
      "city": "Burlington",
      "province": "ON",
      "postalCode": "L7L 0B7",
      "phoneNumber": "(905) 315-9891",
      "pickUpEnabled": "true"
    },
    {
      "storeNumber": 1942,
      "storeName": "1942 - Eglinton Ave",
      "latitude": 43.5497683247263,
      "longitude": -79.7169278276562,
      "eCommOnly": "Y",
      "streetNumber": 2975,
      "street": "Eglinton Ave W",
      "city": "Mississauga",
      "province": "ON",
      "postalCode": "L5M 6J3",
      "phoneNumber": "(905) 569-8797 X0",
      "pickUpEnabled": "true"
    },
    {
      "storeNumber": 1943,
      "storeName": "1943 - Sandale Rd",
      "latitude": 43.9668037794408,
      "longitude": -79.2708295305443,
      "eCommOnly": "Y",
      "streetNumber": 15,
      "street": "Sandale Rd",
      "city": "Stouffville",
      "province": "ON",
      "postalCode": "L4A 8B7",
      "phoneNumber": "(905) 640-4780 X0",
      "pickUpEnabled": "true"
    },
    {
      "storeNumber": 1940,
      "storeName": "1940 - Consumers Dr",
      "latitude": 43.8679956910814,
      "longitude": -78.9318054716398,
      "eCommOnly": "Y",
      "streetNumber": 175,
      "street": "Consumers Dr",
      "city": "Whitby",
      "province": "ON",
      "postalCode": "L1N 1C4",
      "phoneNumber": "(905) 666-1411",
      "pickUpEnabled": "true"
    },
    {
      "storeNumber": 1939,
      "storeName": "1939 - Financial Dr",
      "latitude": 43.6112125317849,
      "longitude": -79.7484765661548,
      "eCommOnly": "Y",
      "streetNumber": 6970,
      "street": "Financial Dr",
      "city": "Mississauga",
      "province": "ON",
      "postalCode": "L5N 8J4",
      "phoneNumber": "(905) 567-8172 X0",
      "pickUpEnabled": "true"
    },
    {
      "storeNumber": 1936,
      "storeName": "1936 - Dundas St",
      "latitude": 43.632186991013,
      "longitude": -79.544458462529,
      "eCommOnly": "Y",
      "streetNumber": 5487,
      "street": "Dundas St W",
      "city": "Etobicoke",
      "province": "ON",
      "postalCode": "M9B 1B5",
      "phoneNumber": "(416) 236-3158 X0",
      "pickUpEnabled": "true"
    },
    {
      "storeNumber": 1950,
      "storeName": "1950 - Wonderland Rd",
      "latitude": 42.9367085576745,
      "longitude": -81.2809400881724,
      "eCommOnly": "Y",
      "streetNumber": 3060,
      "street": "Wonderland Rd S",
      "city": "London",
      "province": "ON",
      "postalCode": "N6L 1A6",
      "phoneNumber": "",
      "pickUpEnabled": "true"
    },
    {
      "storeNumber": 1951,
      "storeName": "1951 - Dundas St",
      "latitude": 43.6109940087833,
      "longitude": -79.5820582106222,
      "eCommOnly": "Y",
      "streetNumber": 1455,
      "street": "Dundas St E",
      "city": "Mississauga",
      "province": "ON",
      "postalCode": "L4X 1L3",
      "phoneNumber": "",
      "pickUpEnabled": "true"
    },
    {
      "storeNumber": 1948,
      "storeName": "1948 - Yonge St",
      "latitude": 44.0704779633517,
      "longitude": -79.484140104879,
      "eCommOnly": "Y",
      "streetNumber": 18187,
      "street": "Yonge Street",
      "city": "East Gwillimbury",
      "province": "ON",
      "postalCode": "L9N 0H9",
      "phoneNumber": "(905) 836-4046 X0",
      "pickUpEnabled": "true"
    },
    {
      "storeNumber": 1949,
      "storeName": "1949 - Baseline Rd",
      "latitude": 53.5412251020992,
      "longitude": -113.298226896179,
      "eCommOnly": "Y",
      "streetNumber": 390,
      "street": "Baseline Rd",
      "city": "Sherwood Park",
      "province": "AB",
      "postalCode": "T8H 1X1",
      "phoneNumber": "(780) 417-4501 X0",
      "pickUpEnabled": "true"
    },
    {
      "storeNumber": 1946,
      "storeName": "1946 - Vansickle Rd",
      "latitude": 43.1521071274545,
      "longitude": -79.2704907778341,
      "eCommOnly": "Y",
      "streetNumber": 420,
      "street": "Vansickle Rd, RR#3",
      "city": "St.Catharines",
      "province": "ON",
      "postalCode": "L2R 6P9",
      "phoneNumber": "(905) 641-1802 X0",
      "pickUpEnabled": "true"
    },
    {
      "storeNumber": 1947,
      "storeName": "1947 - Harmony Rd ",
      "latitude": 43.938336714245,
      "longitude": -78.8488749276638,
      "eCommOnly": "Y",
      "streetNumber": 1389,
      "street": "Harmony Rd North RR 2",
      "city": "Oshawa",
      "province": "ON",
      "postalCode": "L1H 7K5",
      "phoneNumber": "(905) 429-2243 X0",
      "pickUpEnabled": "true"
    },
    {
      "storeNumber": 1944,
      "storeName": "1944 - Consumers Dr",
      "latitude": 45.3035649934544,
      "longitude": -66.016066468326,
      "eCommOnly": "Y",
      "streetNumber": 86,
      "street": "Consumers Dr",
      "city": "Saint John",
      "province": "NB",
      "postalCode": "E2J 4Z3",
      "phoneNumber": "(506) 657-9477 X0",
      "pickUpEnabled": "true"
    },
    {
      "storeNumber": 1945,
      "storeName": "1945 - Hwy 7",
      "latitude": 43.8671991287444,
      "longitude": -79.2849191982751,
      "eCommOnly": "Y",
      "streetNumber": 5070,
      "street": "Hwy 7 East",
      "city": "Markham",
      "province": "ON",
      "postalCode": "L3R 4M9",
      "phoneNumber": "(905) 305-1809 X0",
      "pickUpEnabled": "true"
    },
    {
      "storeNumber": 1927,
      "storeName": "1927 - McLaughlin Rd",
      "latitude": 43.6167966406904,
      "longitude": -79.6900297571558,
      "eCommOnly": "Y",
      "streetNumber": 5980,
      "street": "McLaughlin Rd",
      "city": "Mississauga",
      "province": "ON",
      "postalCode": "L5R 3X9",
      "phoneNumber": "",
      "pickUpEnabled": "true"
    },
    {
      "storeNumber": 1926,
      "storeName": "1926 - Keele St",
      "latitude": 43.6712693983029,
      "longitude": -79.4671156640055,
      "eCommOnly": "Y",
      "streetNumber": 590,
      "street": "Keele St",
      "city": "Toronto",
      "province": "ON",
      "postalCode": "M6N 3E2",
      "phoneNumber": "(416) 760-7893",
      "pickUpEnabled": "true"
    },
    {
      "storeNumber": 1925,
      "storeName": "1925 - 99 St",
      "latitude": 53.4533506391648,
      "longitude": -113.485827576996,
      "eCommOnly": "Y",
      "streetNumber": 2203,
      "street": "99 St NW",
      "city": "Edmonton",
      "province": "AB",
      "postalCode": "T6N 1J7",
      "phoneNumber": "(780) 988-2233",
      "pickUpEnabled": "true"
    },
    {
      "storeNumber": 1924,
      "storeName": "1924 - Cyrville Rd",
      "latitude": 45.4161368535212,
      "longitude": -75.6021304588839,
      "eCommOnly": "Y",
      "streetNumber": 1899,
      "street": "Cyrville Rd",
      "city": "Ottawa",
      "province": "ON",
      "postalCode": "K1B 1A9",
      "phoneNumber": "(613) 746-6623 X0",
      "pickUpEnabled": "true"
    },
    {
      "storeNumber": 1921,
      "storeName": "1921 - Milner Ave",
      "latitude": 43.8002140332847,
      "longitude": -79.1991385413579,
      "eCommOnly": "Y",
      "streetNumber": 853,
      "street": "Milner Ave",
      "city": "Scarborough",
      "province": "ON",
      "postalCode": "M1B 5N6",
      "phoneNumber": "(416) 283-2460",
      "pickUpEnabled": "true"
    },
    {
      "storeNumber": 1920,
      "storeName": "1920 - Woodbine Ave",
      "latitude": 44.2371258612181,
      "longitude": -79.4495740933372,
      "eCommOnly": "Y",
      "streetNumber": 24398,
      "street": "Woodbine Ave",
      "city": "Keswick",
      "province": "ON",
      "postalCode": "L4P 3E9",
      "phoneNumber": "(905) 476-5667",
      "pickUpEnabled": "true"
    },
    {
      "storeNumber": 1935,
      "storeName": "1935 - Golf Links Rd",
      "latitude": 43.2275747784259,
      "longitude": -79.9407017480225,
      "eCommOnly": "Y",
      "streetNumber": 1000,
      "street": "Golf Links Rd, RR#1",
      "city": "Ancaster",
      "province": "ON",
      "postalCode": "L9G 3K9",
      "phoneNumber": "(905) 304-1885 X0",
      "pickUpEnabled": "true"
    },
    {
      "storeNumber": 1934,
      "storeName": "1934 - Great Northern Rd",
      "latitude": 46.5359032993708,
      "longitude": -84.3186945266328,
      "eCommOnly": "Y",
      "streetNumber": 332,
      "street": "Great Northern Rd",
      "city": "Sault Ste. Marie",
      "province": "ON",
      "postalCode": "P6B 4Z8",
      "phoneNumber": "(705) 256-2677 X0",
      "pickUpEnabled": "true"
    },
    {
      "storeNumber": 1933,
      "storeName": "1933 - Talbot St",
      "latitude": 42.7788168466266,
      "longitude": -81.1639727046769,
      "eCommOnly": "Y",
      "streetNumber": "1014 1/2",
      "street": "Talbot St",
      "city": "St. Thomas",
      "province": "ON",
      "postalCode": "N5P 1G3",
      "phoneNumber": "(519) 637-7280 X0",
      "pickUpEnabled": "true"
    },
    {
      "storeNumber": 1932,
      "storeName": "1932 - Wilson Ave",
      "latitude": 43.7266326723295,
      "longitude": -79.481890118965,
      "eCommOnly": "Y",
      "streetNumber": 1077,
      "street": "Wilson Ave",
      "city": "North York",
      "province": "ON",
      "postalCode": "M3K 1G7",
      "phoneNumber": "",
      "pickUpEnabled": "true"
    },
    {
      "storeNumber": 1931,
      "storeName": "New Store",
      "latitude": 44.5015000074529,
      "longitude": -80.2305108120187,
      "eCommOnly": "Y",
      "streetNumber": 440,
      "street": "1st St",
      "city": "Collingwood",
      "province": "ON",
      "postalCode": "L9Y 1B6",
      "phoneNumber": "(705) 445-1931 X0",
      "pickUpEnabled": "true"
    },
    {
      "storeNumber": 2424,
      "storeName": "2424 - Eglinton Ave",
      "latitude": 43.7070593623755,
      "longitude": -79.3965780078937,
      "eCommOnly": "Y",
      "streetNumber": 49,
      "street": "Eglinton Avenue East",
      "city": "Toronto",
      "province": "ON",
      "postalCode": "M4P 1G6",
      "phoneNumber": "(416) 322-1551 X0",
      "pickUpEnabled": "true"
    },
    {
      "storeNumber": 1929,
      "storeName": "1929 - University Ave",
      "latitude": 46.2433356037756,
      "longitude": -63.1332323050524,
      "eCommOnly": "Y",
      "streetNumber": 359,
      "street": "University Ave",
      "city": "Charlottetown",
      "province": "unknown",
      "postalCode": "C1A 4M9",
      "phoneNumber": "(902) 894-7440 X0",
      "pickUpEnabled": "true"
    }
  ]
}
